A5e))	&¦K–œ,,pÙ±‚ªÄ)Ó¦%%N…$5QÁŠ44iSð))LL22X©ÅjüÕ&L˜–*3ÿ‚Eµ$GPGGA,231637.000,,,,,0,00,,,M,,M,,*7A
$GPGSV,1,1,03,07,73,197,,08,63,053,,11,53,156,*49
$GPGGA,231638.000,,,,,0,00,,,M,,M,,*75
$GPGSV,1,1,03,07,73,197,,08,63,053,,11,53,156,*49
$GPGGA,231639.000,,,,,0,00,,,M,,M,,*74
$GPGSV,1,1,03,07,73,197,,08,63,053,,11,53,156,*49
$GPGGA,231640.000,,,,,0,00,,,M,,M,,*7A
$GPGSV,1,1,03,07,73,197,,08,63,053,,11,53,156,*49
$GPGGA,231641.000,,,,,0,00,,,M,,M,,*7B
$GPGSV,1,1,03,07,73,197,,08,63,053,,11,53,156,*49
$GPGGA,231642.000,,,,,0,00,,,M,,M,,*78
$GPGSV,1,1,03,07,73,197,,08,63,053,,11,53,156,*49
$GPGGA,231643.000,,,,,0,00,,,M,,M,,*79
$GPGSV,1,1,03,07,73,197,,08,63,053,,11,53,156,*49
$GPGGA,231644.000,,,,,0,00,,,M,,M,,*7E
$GPGSV,1,1,03,07,73,197,,08,63,053,,11,53,156,*49
$GPGGA,231645.000,,,,,0,00,,,M,,M,,*7F
$GPGSV,1,1,03,07,73,197,,08,63,053,,11,53,156,*49
$GPGGA,231646.000,,,,,0,00,,,M,,M,,*7C
$GPGSV,1,1,03,07,73,197,,08,63,053,,11,53,156,*49
$GPGGA,231647.000,,,,,0,00,,,M,,M,,*7D
$GPGSV,1,1,03,07,73,197,,08,63,053,,11,53,156,*49
$GPGGA,231648.000,,,,,0,00,,,M,,M,,*72
$GPGSV,1,1,03,07,73,197,,08,63,053,,11,53,156,*49
$GPGGA,231649.000,,,,,0,00,,,M,,M,,*73
$GPGSV,1,1,03,07,73,197,,08,63,053,,11,53,156,*49
$GPGGA,231650.000,,,,,0,00,,,M,,M,,*7B
$GPGSV,1,1,03,07,73,197,,08,63,053,,11,53,156,*49
$GPGGA,231651.000,,,,,0,00,,,M,,M,,*7A
$GPGSV,1,1,03,07,73,196,,08,63,053,,11,53,156,*48
$GPGGA,231652.000,,,,,0,00,,,M,,M,,*79
$GPGSV,1,1,03,07,73,196,,08,63,053,,11,53,156,*48
$GPGGA,231653.000,,,,,0,00,,,M,,M,,*78
$GPGSV,1,1,03,07,73,196,,08,63,053,,11,53,156,*48
$GPGGA,231654.000,,,,,0,00,,,M,,M,,*7F
$GPGSV,1,1,03,07,73,196,,08,63,053,,11,53,156,*48
$GPGGA,231655.000,,,,,0,00,,,M,,M,,*7E
$GPGSV,1,1,03,07,73,196,,08,63,053,,11,53,156,*48
$GPGGA,231656.000,,,,,0,00,,,M,,M,,*7D
$GPGSV,1,1,03,07,73,196,,08,63,053,,11,53,156,*48
$GPGGA,231657.000,,,,,0,00,,,M,,M,,*7C
$GPGSV,1,1,03,07,73,196,,08,63,053,,11,53,156,*48
$GPGGA,231658.000,,,,,0,00,,,M,,M,,*73
$GPGSV,1,1,03,07,73,196,,08,63,053,,11,53,156,*48
$GPGGA,231659.000,,,,,0,00,,,M,,M,,*72
$GPGSV,1,1,03,07,73,196,,08,63,053,,11,53,156,*48
$GPGGA,231700.000,,,,,0,00,,,M,,M,,*7F
$GPGSV,1,1,03,07,73,196,,08,63,053,,11,53,156,*48
$GPGGA,231701.000,,,,,0,00,,,M,,M,,*7E
$GPGSV,1,1,03,07,73,196,,08,63,053,,11,53,156,*48
$GPGGA,231702.000,,,,,0,00,,,M,,M,,*7D
$GPGSV,1,1,04,07,73,196,,08,63,053,,11,53,156,,30,,,26*48
$GPGGA,231703.000,,,,,0,00,,,M,,M,,*7C
$GPGSV,1,1,04,07,73,196,,08,63,053,,11,53,156,,30,,,27*49
$GPGGA,231704.000,,,,,0,00,,,M,,M,,*7B
$GPGSV,1,1,04,07,73,196,,08,63,053,,11,53,156,,30,,,29*47
$GPGGA,231705.000,,,,,0,00,,,M,,M,,*7A
$GPGSV,1,1,04,07,73,196,,08,63,053,,11,53,156,,30,,,29*47
$GPGGA,231706.000,,,,,0,00,,,M,,M,,*79
$GPGSV,1,1,04,07,73,196,,08,63,053,,11,53,156,,30,,,30*4F
$GPGGA,231707.000,,,,,0,00,,,M,,M,,*78
$GPGSV,1,1,04,07,73,196,,08,63,053,,11,53,156,,30,,,28*46
$GPGGA,231708.000,,,,,0,00,,,M,,M,,*77
$GPGSV,1,1,04,07,73,196,,08,63,053,,11,53,156,,30,,,28*46
$GPGGA,231709.000,,,,,0,00,,,M,,M,,*76
$GPGSV,1,1,04,07,73,196,,08,63,053,,11,53,156,,30,,,28*46
$GPGGA,231710.000,,,,,0,00,,,M,,M,,*7E
$GPGSV,1,1,04,07,73,196,,08,63,053,,11,53,156,,30,,,27*49
$GPGGA,231711.000,,,,,0,00,,,M,,M,,*7F
$GPGSV,1,1,04,07,73,196,,08,63,053,,11,53,156,,30,,,28*46
$GPGGA,231712.000,,,,,0,00,,,M,,M,,*7C
$GPGSV,1,1,04,07,73,196,,08,63,053,,11,53,156,,30,,,29*47
$GPGGA,231713.000,,,,,0,01,,,M,,M,,*7C
$GPGSV,1,1,04,07,73,196,30,08,63,053,,11,53,156,,30,,,29*44
$GPGGA,231714.000,,,,,0,02,,,M,,M,,*78
$GPGSV,1,1,04,07,73,196,31,08,63,053,,11,53,156,31,30,,,30*4F
$GPGGA,231715.000,,,,,0,02,,,M,,M,,*79
$GPGSV,1,1,04,07,73,196,26,08,63,053,,11,53,156,20,30,,,31*48
$GPGGA,231716.000,,,,,0,02,,,M,,M,,*7A
$GPGSV,1,1,04,07,73,196,30,08,63,053,,11,53,156,26,30,,,31*49
$GPGGA,231717.000,,,,,0,02,,,M,,M,,*7B
$GPGSV,1,1,04,07,73,196,28,08,63,053,,11,53,156,27,30,,,31*41
$GPGGA,231718.000,,,,,0,02,,,M,,M,,*74
$GPGSV,1,1,04,07,73,196,28,08,63,053,,11,53,156,29,30,,,23*4C
$GPGGA,231718.220,,,,,0,02,,,M,,M,,*74
$GPGSV,1,1,04,07,73,196,29,08,63,053,,11,53,156,28,30,,,22*4D
$GPGGA,231720.000,,,,,0,02,,,M,,M,,*7F
$GPGSV,1,1,04,07,73,196,28,08,63,053,,11,53,156,28,30,,,20*4E
$GPGGA,231721.000,,,,,0,02,,,M,,M,,*7E
$GPGSV,1,1,04,07,73,196,27,08,63,053,,11,53,156,27,30,,,20*4E
$GPGGA,231722.000,,,,,0,02,,,M,,M,,*7D
$GPGSV,1,1,04,07,73,196,26,08,63,053,,11,53,156,27,30,,,20*4F
$GPGGA,231723.000,,,,,0,02,,,M,,M,,*7C
$GPGSV,1,1,04,07,73,196,26,08,63,053,,11,53,156,27,30,,,29*46
$GPGGA,231724.000,,,,,0,02,,,M,,M,,*7B
$GPGSV,1,1,04,07,73,196,27,08,63,053,,11,53,156,28,30,,,29*48
$GPGGA,231724.220,,,,,0,02,,,M,,M,,*7B
$GPGSV,1,1,04,07,73,196,28,08,63,053,,11,53,156,28,30,,,29*47
$GPGGA,231726.000,,,,,0,02,,,M,,M,,*79
$GPGSV,1,1,04,07,73,196,29,08,63,053,,11,53,156,30,30,,,29*4F
$GPGGA,231727.000,,,,,0,02,,,M,,M,,*78
$GPGSV,1,1,04,07,73,196,29,08,63,053,,11,53,156,30,30,,,32*45
$GPGGA,231728.000,,,,,0,02,,,M,,M,,*77
$GPGSV,1,1,04,07,73,196,28,08,63,053,,11,53,156,30,30,,,29*4E
$GPGGA,231729.000,,,,,0,02,,,M,,M,,*76
$GPGSV,1,1,04,07,73,196,29,08,63,053,,11,53,156,30,30,,,29*4F
$GPGGA,231730.000,,,,,0,02,,,M,,M,,*7E
$GPGSV,1,1,04,07,73,196,29,08,63,053,,11,53,155,30,30,,,29*4C
$GPGGA,231730.220,,,,,0,02,,,M,,M,,*7E
$GPGSV,1,1,04,07,73,196,29,08,63,053,,11,53,155,30,30,,,27*42
$GPGGA,231732.000,,,,,0,02,,,M,,M,,*7C
$GPGSV,1,1,04,07,73,196,29,08,63,053,,11,53,155,29,30,,,27*4A
$GPGGA,231733.000,,,,,0,02,,,M,,M,,*7D
$GPGSV,1,1,04,07,73,196,26,08,63,053,,11,53,155,28,30,,,28*4B
$GPGGA,231734.000,,,,,0,02,,,M,,M,,*7A
$GPGSV,1,1,04,07,73,196,25,08,63,053,,11,53,155,27,30,,,26*49
$GPGGA,231735.000,,,,,0,02,,,M,,M,,*7B
$GPGSV,1,1,04,07,73,196,32,08,63,053,,11,53,155,28,30,,,28*4E
$GPGGA,231736.000,,,,,0,02,,,M,,M,,*78
$GPGSV,1,1,04,07,73,196,33,08,63,053,,11,53,155,29,30,,,29*4F
$GPGGA,231736.215,,,,,0,02,,,M,,M,,*7E
$GPGSV,1,1,04,07,73,196,32,08,63,053,,11,53,155,29,30,,,29*4E
$GPGGA,231738.000,4413.6679,N,07629.5717,W,1,03,3.96,186.3,M,-34.5,M,,*5C
$GPGSV,1,1,04,07,73,196,34,08,63,053,35,11,53,155,30,30,,,28*47
$GPGGA,231739.000,4413.6680,N,07629.5748,W,1,03,3.96,186.4,M,-34.5,M,,*56
$GPGSV,1,1,04,07,73,196,35,08,63,053,38,11,53,155,30,30,,,29*4A
$GPGGA,231740.000,4413.6672,N,07629.5748,W,1,03,3.96,186.4,M,-34.5,M,,*55
$GPGSV,1,1,04,07,73,196,33,08,63,053,34,11,53,155,30,30,,,29*40
$GPGGA,231741.000,4413.6666,N,07629.5741,W,1,03,3.96,188.9,M,-34.5,M,,*5B
$GPGSV,1,1,04,07,73,196,34,08,63,053,33,11,53,155,30,30,,,31*49
$GPGGA,231742.000,4413.6654,N,07629.5735,W,1,03,3.96,192.0,M,-34.5,M,,*58
$GPGSV,1,1,04,07,73,196,33,08,63,053,34,11,53,155,31,30,,,31*48
$GPGGA,231742.216,4413.6649,N,07629.5728,W,1,03,3.96,195.3,M,-34.5,M,,*59
$GPGSV,2,1,05,07,73,196,33,08,63,053,34,11,53,155,31,01,28,156,*72
$GPGSV,2,2,05,30,,,31*7D
$GPGGA,231744.000,4413.6653,N,07629.5737,W,1,03,36.70,196.1,M,-34.5,M,,*60
$GPGSV,2,1,05,07,73,196,35,08,63,053,33,11,53,155,31,01,28,156,*73
$GPGSV,2,2,05,30,,,32*7E
$GPGGA,231745.000,4413.6654,N,07629.5743,W,1,03,36.69,195.3,M,-34.5,M,,*6C
$GPGSV,2,1,05,07,73,196,35,08,63,053,34,11,53,155,31,01,28,156,*74
$GPGSV,2,2,05,30,,,31*7D
$GPGGA,231746.000,,,,,0,02,,,M,,M,,*7F
$GPGSV,2,1,05,07,73,196,,08,63,053,34,11,53,155,31,01,28,156,*72
$GPGSV,2,2,05,30,,,32*7E
$GPGGA,231747.000,,,,,0,02,,,M,,M,,*7E
$GPGSV,2,1,05,07,73,196,,08,63,053,34,11,53,155,30,01,28,156,*73
$GPGSV,2,2,05,30,,,33*7F
$GPGGA,231748.000,,,,,0,02,,,M,,M,,*71
$GPGSV,2,1,05,07,73,196,,08,63,053,35,11,53,155,30,01,28,156,*72
$GPGSV,2,2,05,30,,,32*7E
$GPGGA,231748.216,,,,,0,02,,,M,,M,,*74
$GPGSV,2,1,05,07,73,196,,08,63,053,34,11,53,155,30,01,28,156,*73
$GPGSV,2,2,05,30,,,32*7E
$GPGGA,231750.000,4413.6680,N,07629.5764,W,1,03,36.63,192.1,M,-34.5,M,,*6B
$GPGSV,2,1,05,07,73,196,35,08,63,053,33,11,53,155,31,01,28,156,*73
$GPGSV,2,2,05,30,,,33*7F
$GPGGA,231751.000,4413.6682,N,07629.5768,W,1,03,36.61,192.6,M,-34.5,M,,*61
$GPGSV,2,1,05,07,73,196,34,08,63,053,33,11,53,155,31,01,28,156,*72
$GPGSV,2,2,05,30,,,33*7F
$GPGGA,231752.000,4413.6680,N,07629.5759,W,1,03,36.60,198.0,M,-34.5,M,,*6F
$GPGSV,2,1,05,07,73,196,35,08,63,053,36,11,53,155,32,01,28,156,26*71
$GPGSV,2,2,05,30,,,33*7F
$GPGGA,231753.000,4413.6680,N,07629.5754,W,1,03,36.59,198.6,M,-34.5,M,,*6F
$GPGSV,2,1,05,07,73,196,31,08,63,053,32,11,53,155,33,01,28,156,31*76
$GPGSV,2,2,05,30,,,32*7E
$GPGGA,231754.000,4413.6681,N,07629.5763,W,1,03,3.97,197.2,M,-34.5,M,,*52
$GPGSV,2,1,05,07,73,196,35,08,63,053,34,11,53,155,34,01,28,156,28*7B
$GPGSV,2,2,05,30,,,32*7E
$GPGGA,231754.205,4413.6680,N,07629.5767,W,1,03,36.57,197.6,M,-34.5,M,,*6E
$GPGSV,2,1,05,07,73,196,34,08,63,053,33,11,53,155,33,01,28,156,28*7A
$GPGSV,2,2,05,30,,,32*7E
$GPGGA,231756.000,4413.6678,N,07629.5775,W,1,03,36.55,202.1,M,-34.5,M,,*65
$GPGSV,2,1,05,07,73,196,35,08,63,053,36,11,53,155,32,01,28,156,26*71
$GPGSV,2,2,05,30,,,32*7E
$GPGGA,231757.000,4413.6678,N,07629.5773,W,1,03,3.97,200.3,M,-34.5,M,,*5A
$GPGSV,2,1,05,07,73,196,33,08,63,053,32,11,53,155,31,01,28,156,27*71
$GPGSV,2,2,05,30,,,32*7E
$GPGGA,231758.000,4413.6671,N,07629.5758,W,1,03,36.53,203.7,M,-34.5,M,,*6C
$GPGSV,2,1,05,07,73,196,33,08,63,053,36,11,53,155,31,01,28,156,28*7A
$GPGSV,2,2,05,30,,,33*7F
$GPGGA,231759.000,4413.6657,N,07629.5755,W,1,03,3.97,209.9,M,-34.5,M,,*5E
$GPGSV,2,1,05,07,73,196,34,08,63,053,36,11,53,155,31,01,28,156,*77
$GPGSV,2,2,05,30,,,34*78
$GPGGA,231800.000,4413.6643,N,07629.5742,W,1,03,3.97,212.8,M,-34.5,M,,*55
$GPGSV,2,1,05,07,73,196,34,08,63,053,36,11,53,155,32,01,28,156,30*77
$GPGSV,2,2,05,30,,,34*78
$GPGGA,231800.205,4413.6721,N,07629.6011,W,1,04,2.13,108.7,M,-34.5,M,,*58
$GPGSV,2,1,06,07,73,196,33,08,63,053,33,30,55,299,34,11,53,155,32*7A
$GPGSV,2,2,06,51,30,220,,01,28,156,29*7A
$GPGGA,231802.000,4413.6706,N,07629.6010,W,1,04,2.13,109.9,M,-34.5,M,,*56
$GPGSV,2,1,06,07,73,196,33,08,63,053,34,30,55,299,34,11,53,155,31*7E
$GPGSV,2,2,06,51,30,220,,01,28,156,28*7B
$GPGGA,231803.000,4413.6697,N,07629.6016,W,1,04,2.13,111.6,M,-34.5,M,,*5E
$GPGSV,2,1,06,07,72,195,32,08,63,053,34,30,55,299,34,11,53,155,32*7E
$GPGSV,2,2,06,51,30,220,,01,28,156,28*7B
$GPGGA,231804.000,4413.6686,N,07629.6025,W,1,04,2.13,112.6,M,-34.5,M,,*5A
$GPGSV,2,1,06,07,72,195,33,08,62,053,34,30,55,299,34,11,53,155,31*7D
$GPGSV,2,2,06,51,30,220,31,01,28,156,27*76
$GPGGA,231805.000,4413.6683,N,07629.6023,W,1,04,2.13,112.7,M,-34.5,M,,*59
$GPGSV,2,1,06,07,72,195,34,08,62,053,35,30,55,299,34,11,53,155,31*7B
$GPGSV,2,2,06,51,30,220,30,01,28,156,29*79
$GPGGA,231806.000,4413.6678,N,07629.6025,W,1,04,2.13,112.2,M,-34.5,M,,*5D
$GPGSV,2,1,06,07,72,195,34,08,62,053,35,30,55,299,34,11,53,155,31*7B
$GPGSV,2,2,06,51,30,220,30,01,28,156,25*75
$GPGGA,231807.000,4413.6674,N,07629.6022,W,1,04,2.13,111.4,M,-34.5,M,,*52
$GPGSV,2,1,06,07,72,195,34,08,62,053,36,30,55,299,34,11,53,155,31*78
$GPGSV,2,2,06,51,30,220,30,01,28,156,25*75
$GPGGA,231808.000,4413.6668,N,07629.6021,W,1,04,2.13,111.1,M,-34.5,M,,*56
$GPGSV,2,1,06,07,72,195,33,08,62,053,35,30,55,299,34,11,54,155,31*7B
$GPGSV,2,2,06,51,30,220,29,01,28,156,26*7E
$GPGGA,231809.000,4413.6661,N,07629.6021,W,1,04,2.13,110.6,M,-34.5,M,,*58
$GPGSV,2,1,06,07,72,195,34,08,62,053,36,30,55,299,35,11,54,155,30*7F
$GPGSV,2,2,06,51,30,220,29,01,28,156,24*7C
$GPGGA,231810.000,4413.6656,N,07629.6018,W,1,04,2.13,110.9,M,-34.5,M,,*51
$GPGSV,2,1,06,07,72,195,33,08,62,053,36,30,55,299,35,11,54,155,30*78
$GPGSV,2,2,06,51,30,220,28,01,28,156,29*70
$GPGGA,231811.000,4413.6649,N,07629.6016,W,1,04,2.13,111.3,M,-34.5,M,,*5B
$GPGSV,2,1,06,07,72,195,32,08,62,053,36,30,55,299,35,11,54,155,30*79
$GPGSV,2,2,06,51,30,220,29,01,28,156,27*7F
$GPGGA,231812.000,4413.6641,N,07629.6015,W,1,04,2.13,111.6,M,-34.5,M,,*56
$GPGSV,2,1,06,07,72,195,33,08,62,053,35,30,55,299,35,11,54,155,30*7B
$GPGSV,2,2,06,51,30,220,29,01,28,156,30*79
$GPGGA,231813.000,4413.6635,N,07629.6016,W,1,04,2.13,112.0,M,-34.5,M,,*52
$GPGSV,2,1,06,07,72,195,34,08,62,053,34,30,55,299,34,11,54,155,28*75
$GPGSV,2,2,06,51,30,220,28,01,28,156,28*71
$GPGGA,231814.000,4413.6630,N,07629.6015,W,1,04,2.13,112.0,M,-34.5,M,,*53
$GPGSV,2,1,06,07,72,195,34,08,62,053,34,30,55,299,34,11,54,155,30*7C
$GPGSV,2,2,06,51,30,220,29,01,28,156,28*70
$GPGGA,231815.000,4413.6626,N,07629.6012,W,1,04,2.13,112.1,M,-34.5,M,,*53
$GPGSV,2,1,06,07,72,195,34,08,62,053,34,30,55,299,33,11,54,155,30*7B
$GPGSV,2,2,06,51,30,220,29,01,28,156,25*7D
$GPGGA,231816.000,4413.6623,N,07629.6009,W,1,04,2.13,112.2,M,-34.5,M,,*5C
$GPGSV,2,1,06,07,72,195,34,08,62,053,35,30,55,299,22,11,54,155,31*7B
$GPGSV,2,2,06,51,30,220,29,01,28,156,25*7D
$GPGGA,231817.000,4413.6621,N,07629.6003,W,1,04,2.13,112.3,M,-34.5,M,,*54
$GPGSV,2,1,06,07,72,195,32,08,62,053,34,30,55,299,22,11,54,155,30*7D
$GPGSV,2,2,06,51,30,220,28,01,28,156,26*7F
$GPGGA,231818.000,4413.6621,N,07629.5998,W,1,04,2.13,112.0,M,-34.5,M,,*50
$GPGSV,2,1,06,07,72,195,32,08,62,053,34,30,55,299,21,11,54,155,29*76
$GPGSV,2,2,06,51,30,220,27,01,28,156,27*71
$GPGGA,231819.000,4413.6622,N,07629.5991,W,1,04,2.13,112.2,M,-34.5,M,,*59
$GPGSV,2,1,06,07,72,195,25,08,62,053,34,30,55,299,20,11,54,155,28*70
$GPGSV,2,2,06,51,30,220,27,01,28,156,28*7E
$GPGGA,231820.000,4413.6621,N,07629.5985,W,1,04,2.13,112.0,M,-34.5,M,,*57
$GPGSV,2,1,06,07,72,195,26,08,62,053,33,30,55,299,20,11,54,155,28*74
$GPGSV,2,2,06,51,30,220,27,01,28,156,29*7F
$GPGGA,231821.000,4413.6623,N,07629.5977,W,1,04,2.13,111.9,M,-34.5,M,,*53
$GPGSV,2,1,06,07,72,195,26,08,62,053,33,30,55,299,20,11,54,155,28*74
$GPGSV,2,2,06,51,30,220,27,01,28,156,28*7E
$GPGGA,231822.000,4413.6625,N,07629.5969,W,1,04,2.13,111.9,M,-34.5,M,,*59
$GPGSV,2,1,06,07,72,195,26,08,62,053,32,30,55,299,20,11,54,155,28*75
$GPGSV,2,2,06,51,30,220,27,01,28,156,28*7E
$GPGGA,231823.000,4413.6625,N,07629.5960,W,1,04,2.13,111.5,M,-34.5,M,,*5D
$GPGSV,2,1,06,07,72,195,27,08,62,053,32,30,55,299,20,11,54,155,28*74
$GPGSV,2,2,06,51,30,220,27,01,28,156,28*7E
$GPGGA,231824.000,4413.6625,N,07629.5946,W,1,04,2.13,111.2,M,-34.5,M,,*59
$GPGSV,2,1,06,07,72,195,27,08,62,053,32,30,55,299,20,11,54,155,28*74
$GPGSV,2,2,06,51,30,220,26,01,28,156,27*70
$GPGGA,231825.000,4413.6626,N,07629.5936,W,1,04,2.13,110.9,M,-34.5,M,,*56
$GPGSV,2,1,06,07,72,195,26,08,62,053,31,30,55,299,21,11,54,155,28*77
$GPGSV,2,2,06,51,30,220,26,01,28,156,27*70
$GPGGA,231826.000,4413.6626,N,07629.5927,W,1,04,2.12,111.0,M,-34.5,M,,*5C
$GPGSV,2,1,06,07,72,195,26,08,62,053,32,30,55,299,20,11,54,155,26*7B
$GPGSV,2,2,06,51,30,220,26,01,28,156,27*70
$GPGGA,231827.000,4413.6628,N,07629.5914,W,1,04,2.13,110.9,M,-34.5,M,,*5A
$GPGSV,2,1,06,07,72,195,24,08,62,053,33,30,55,299,21,11,54,155,25*7A
$GPGSV,2,2,06,51,30,220,26,01,28,156,19*7D
$GPGGA,231828.000,4413.6630,N,07629.5921,W,1,04,2.13,111.5,M,-34.5,M,,*57
$GPGSV,2,1,06,07,72,195,17,08,62,053,32,30,55,299,36,11,54,155,23*7B
$GPGSV,2,2,06,51,30,220,27,01,28,156,*74
$GPGGA,231829.000,4413.6632,N,07629.5920,W,1,04,2.13,111.5,M,-34.5,M,,*55
$GPGSV,2,1,06,07,72,195,17,08,62,053,30,30,55,299,28,11,54,155,22*77
$GPGSV,2,2,06,51,30,220,28,01,28,156,21*78
$GPGGA,231830.000,4413.6636,N,07629.5930,W,1,04,2.13,111.8,M,-34.5,M,,*55
$GPGSV,2,1,06,07,72,195,19,08,62,053,30,30,55,299,30,11,54,155,21*73
$GPGSV,2,2,06,51,30,220,27,01,28,156,19*7C
$GPGGA,231831.000,4413.6640,N,07629.5929,W,1,04,2.12,111.7,M,-34.5,M,,*53
$GPGSV,2,1,06,07,72,195,24,08,62,053,31,30,55,299,31,11,54,155,21*7D
$GPGSV,2,2,06,51,30,220,27,01,28,156,18*7D
$GPGGA,231832.000,4413.6642,N,07629.5925,W,1,04,2.13,111.9,M,-34.5,M,,*51
$GPGSV,2,1,06,07,72,195,21,08,62,053,31,30,55,299,31,11,54,155,21*78
$GPGSV,2,2,06,01,28,156,19,48,14,245,*74
$GPGGA,231833.000,4413.6643,N,07629.5924,W,1,04,2.12,111.9,M,-34.5,M,,*51
$GPGSV,2,1,06,07,72,195,17,08,62,053,23,30,55,299,30,11,54,155,22*7C
$GPGSV,2,2,06,01,28,156,17,48,14,245,*7A
$GPGGA,231834.000,4413.6645,N,07629.5925,W,1,04,2.12,112.0,M,-34.5,M,,*5B
$GPGSV,2,1,06,07,72,195,19,08,62,053,22,30,55,299,29,11,54,155,21*78
$GPGSV,2,2,06,01,28,156,17,48,14,245,*7A
$GPGGA,231835.000,4413.6646,N,07629.5926,W,1,04,2.13,112.0,M,-34.5,M,,*5B
$GPGSV,2,1,06,07,72,195,18,08,62,053,22,30,55,299,28,11,54,155,20*79
$GPGSV,2,2,06,01,28,156,17,48,14,245,*7A
$GPGGA,231836.000,4413.6647,N,07629.5923,W,1,04,2.13,112.0,M,-34.5,M,,*5C
$GPGSV,2,1,06,07,72,195,19,08,62,053,23,30,55,299,21,11,54,155,20*70
$GPGSV,2,2,06,01,28,156,17,48,14,245,*7A
$GPGGA,231837.000,4413.6656,N,07629.5908,W,1,04,2.13,111.6,M,-34.5,M,,*51
$GPGSV,2,1,06,07,72,195,21,08,62,053,36,30,55,299,21,11,54,155,21*7E
$GPGSV,2,2,06,01,28,156,18,48,14,245,*75
$GPGGA,231838.000,4413.6659,N,07629.5896,W,1,04,2.12,111.7,M,-34.5,M,,*57
$GPGSV,2,1,06,07,72,195,23,08,62,053,35,30,55,299,22,11,54,155,22*7F
$GPGSV,2,2,06,01,28,156,25,48,14,245,*7B
$GPGGA,231839.000,4413.6664,N,07629.5879,W,1,04,2.12,111.6,M,-34.5,M,,*58
$GPGSV,2,1,06,07,72,195,23,08,62,053,34,30,55,299,24,11,54,155,23*79
$GPGSV,2,2,06,01,28,156,24,48,14,245,*7A
$GPGGA,231840.000,4413.6665,N,07629.5869,W,1,04,2.12,111.6,M,-34.5,M,,*56
$GPGSV,2,1,06,07,72,195,22,08,62,053,32,30,55,299,25,11,54,155,23*7F
$GPGSV,2,2,06,01,28,156,23,48,14,245,*7D
$GPGGA,231841.000,4413.6667,N,07629.5858,W,1,04,2.12,111.6,M,-34.5,M,,*57
$GPGSV,2,1,06,07,72,195,21,08,62,053,31,30,55,299,26,11,54,155,23*7C
$GPGSV,2,2,06,01,28,156,21,33,11,111,*74
$GPGGA,231842.000,4413.6671,N,07629.5846,W,1,04,2.12,111.5,M,-34.5,M,,*5F
$GPGSV,2,1,06,07,72,195,20,08,62,053,31,30,55,299,26,11,54,155,24*7A
$GPGSV,2,2,06,01,28,156,20,33,11,111,*75
$GPGGA,231843.000,4413.6674,N,07629.5835,W,1,04,2.12,111.5,M,-34.5,M,,*5F
$GPGSV,2,1,06,07,72,195,20,08,62,053,30,30,55,299,26,11,54,155,24*7B
$GPGSV,2,2,06,01,28,156,21,33,11,111,*74
$GPGGA,231844.000,4413.6676,N,07629.5825,W,1,04,2.12,111.3,M,-34.5,M,,*5D
$GPGSV,2,1,06,07,72,195,19,08,62,053,32,30,55,299,25,11,54,155,24*70
$GPGSV,2,2,06,01,28,156,22,33,11,111,*77
$GPGGA,231845.000,4413.6679,N,07629.5819,W,1,04,2.12,111.2,M,-34.5,M,,*5D
$GPGSV,2,1,06,07,72,195,19,08,62,053,32,30,55,299,30,11,54,155,24*74
$GPGSV,2,2,06,01,28,156,22,33,11,111,*77
$GPGGA,231846.000,4413.6684,N,07629.5809,W,1,04,2.12,111.1,M,-34.5,M,,*5E
$GPGSV,2,1,06,07,72,195,19,08,62,053,33,30,55,299,27,11,54,155,25*72
$GPGSV,2,2,06,01,28,156,23,33,11,111,*76
$GPGGA,231847.000,4413.6687,N,07629.5799,W,1,04,2.12,111.0,M,-34.5,M,,*5B
$GPGSV,2,1,06,07,72,195,20,08,62,053,33,30,55,299,27,11,54,155,25*78
$GPGSV,2,2,06,01,28,156,22,33,11,111,*77
$GPGGA,231848.000,4413.6689,N,07629.5792,W,1,04,2.12,110.9,M,-34.5,M,,*59
$GPGSV,2,1,06,07,72,195,22,08,62,053,26,30,55,299,26,11,54,155,25*7F
$GPGSV,2,2,06,01,28,156,23,33,11,111,*76
$GPGGA,231849.000,4413.6694,N,07629.5788,W,1,04,2.12,110.8,M,-34.5,M,,*5E
$GPGSV,2,1,06,07,72,195,23,08,62,053,18,30,55,299,27,11,54,155,18*7C
$GPGSV,2,2,06,01,28,156,22,33,11,111,*77
$GPGGA,231850.000,4413.6698,N,07629.5780,W,1,04,2.12,110.7,M,-34.5,M,,*5D
$GPGSV,2,1,05,07,72,195,23,08,62,053,18,30,55,299,23,11,54,155,18*7B
$GPGSV,2,2,05,01,28,156,21*46
$GPGGA,231851.000,4413.6701,N,07629.5773,W,1,04,2.12,110.6,M,-34.5,M,,*50
$GPGSV,2,1,05,07,72,195,24,08,62,053,16,30,55,299,23,11,54,155,17*7D
$GPGSV,2,2,05,01,28,156,19*4D
$GPGGA,231852.000,4413.6705,N,07629.5764,W,1,04,2.12,110.6,M,-34.5,M,,*51
$GPGSV,2,1,06,07,72,195,29,08,62,053,15,30,55,299,22,11,54,155,16*70
$GPGSV,2,2,06,51,30,220,,01,28,156,18*78
$GPGGA,231853.000,4413.6708,N,07629.5756,W,1,04,2.12,110.6,M,-34.5,M,,*5C
$GPGSV,2,1,06,07,72,195,29,08,62,053,13,30,55,299,21,11,54,155,16*75
$GPGSV,2,2,06,51,30,220,,01,28,156,16*76
$GPGGA,231854.000,4413.6711,N,07629.5748,W,1,04,2.12,110.5,M,-34.5,M,,*5F
$GPGSV,2,1,06,07,72,195,23,08,62,053,15,30,55,299,18,11,54,155,13*76
$GPGSV,2,2,06,51,30,220,,01,28,156,15*75
$GPGGA,231855.000,4413.6715,N,07629.5740,W,1,04,2.12,110.5,M,-34.5,M,,*52
$GPGSV,2,1,06,07,72,195,17,08,62,053,14,30,55,299,20,11,54,155,15*7D
$GPGSV,2,2,06,51,30,220,,01,28,156,15*75
$GPGGA,231856.000,4413.6718,N,07629.5732,W,1,04,2.12,110.5,M,-34.5,M,,*59
$GPGSV,2,1,06,07,72,195,15,08,62,053,12,30,55,299,17,11,54,155,14*7C
$GPGSV,2,2,06,51,30,220,,01,28,156,14*74
$GPGGA,231857.000,4413.6721,N,07629.5724,W,1,04,2.12,110.6,M,-34.5,M,,*56
$GPGSV,2,1,06,07,72,195,13,08,62,053,14,30,55,299,15,11,54,155,11*7B
$GPGSV,2,2,06,51,30,220,,01,28,156,14*74
$GPGGA,231858.000,4413.6724,N,07629.5717,W,1,04,2.13,110.6,M,-34.5,M,,*5D
$GPGSV,2,1,06,07,72,195,11,08,62,053,12,30,55,299,14,11,54,155,12*7D
$GPGSV,2,2,06,51,30,220,,01,28,156,13*73
$GPGGA,231859.000,4413.6727,N,07629.5709,W,1,04,2.13,110.6,M,-34.5,M,,*50
$GPGSV,2,1,06,07,72,195,14,08,62,053,13,30,55,299,17,11,54,155,12*7A
$GPGSV,2,2,06,51,30,220,,01,28,156,13*73
$GPGGA,231900.000,4413.6731,N,07629.5701,W,1,04,2.13,110.7,M,-34.5,M,,*53
$GPGSV,2,1,06,07,72,195,13,08,62,053,11,30,55,299,15,11,54,155,10*7F
$GPGSV,2,2,06,51,30,220,,01,28,156,14*74
$GPGGA,231901.000,4413.6734,N,07629.5693,W,6,03,99.99,110.7,M,-34.5,M,,*6D
$GPGSV,2,1,05,07,72,195,13,08,62,053,,30,55,299,14,11,54,155,09*75
$GPGSV,2,2,05,01,28,156,*45
$GPGGA,231902.000,4413.6737,N,07629.5685,W,6,02,99.99,110.7,M,-34.5,M,,*6B
$GPGSV,2,1,05,07,72,195,13,08,62,053,,30,55,299,14,11,54,155,*7C
$GPGSV,2,2,05,01,28,156,*45
$GPGGA,231903.000,4413.6740,N,07629.5677,W,6,00,99.99,110.8,M,-34.5,M,,*6A
$GPGSV,2,1,05,07,72,195,13,08,62,053,,30,55,299,13,11,54,155,*7B
$GPGSV,2,2,05,01,28,156,*45
$GPGGA,231904.000,4413.6743,N,07629.5669,W,6,00,99.99,110.8,M,-34.5,M,,*61
$GPGSV,2,1,05,07,72,195,14,08,62,053,,30,55,299,15,11,54,155,*7A
$GPGSV,2,2,05,01,28,156,*45
$GPGGA,231905.000,4413.6747,N,07629.5662,W,6,00,99.99,110.8,M,-34.5,M,,*6F
$GPGSV,2,1,05,07,72,195,14,08,62,053,,30,55,299,16,11,54,155,*79
$GPGSV,2,2,05,01,28,156,*45
$GPGGA,231906.000,4413.6750,N,07629.5654,W,6,00,99.99,110.9,M,-34.5,M,,*6E
$GPGSV,2,1,05,07,72,195,13,08,62,053,,30,55,299,16,11,54,155,*7E
$GPGSV,2,2,05,01,28,156,*45
$GPGGA,231907.000,,,,,0,00,,,M,,M,,*76
$GPGSV,2,1,05,07,72,195,11,08,62,053,,30,55,299,14,11,54,155,*7E
$GPGSV,2,2,05,01,28,156,*45
$GPGGA,231908.000,,,,,0,00,,,M,,M,,*79
$GPGSV,2,1,05,07,72,195,,08,62,053,,30,55,299,,11,54,155,*7B
$GPGSV,2,2,05,01,28,156,*45
$GPGGA,231909.000,,,,,0,00,,,M,,M,,*78
$GPGSV,2,1,05,07,72,195,,08,62,053,,30,55,299,,11,54,155,*7B
$GPGSV,2,2,05,01,29,156,*44
$GPGGA,231910.000,,,,,0,00,,,M,,M,,*70
$GPGSV,2,1,05,07,72,195,,08,62,053,,30,55,299,,11,54,155,*7B
$GPGSV,2,2,05,01,29,156,*44
$GPGGA,231911.000,,,,,0,00,,,M,,M,,*71
$GPGSV,2,1,05,07,72,195,,08,62,053,,30,55,299,,11,54,155,*7B
$GPGSV,2,2,05,01,29,156,*44
$GPGGA,231912.000,,,,,0,00,,,M,,M,,*72
$GPGSV,2,1,05,07,72,195,,08,62,053,,30,55,299,,11,54,155,*7B
$GPGSV,2,2,05,01,29,156,*44
$GPGGA,231913.000,,,,,0,00,,,M,,M,,*73
$GPGSV,2,1,05,07,72,195,,08,62,053,,30,55,299,,11,54,155,*7B
$GPGSV,2,2,05,01,29,156,*44
$GPGGA,231914.000,,,,,0,00,,,M,,M,,*74
$GPGSV,2,1,05,07,72,195,,08,62,053,,30,55,299,,11,54,155,*7B
$GPGSV,2,2,05,01,29,156,*44
$GPGGA,231915.000,,,,,0,00,,,M,,M,,*75
$GPGSV,2,1,05,07,72,194,,08,62,053,,30,55,299,,11,54,155,*7A
$GPGSV,2,2,05,01,29,156,*44
$GPGGA,231916.000,,,,,0,00,,,M,,M,,*76
$GPGSV,2,1,05,07,72,194,,08,62,053,,30,55,299,,11,54,155,*7A
$GPGSV,2,2,05,01,29,156,*44
$GPGGA,231917.000,,,,,0,00,,,M,,M,,*77
$GPGSV,2,1,05,07,72,194,,08,62,053,,30,55,299,,11,54,155,*7A
$GPGSV,2,2,05,01,29,156,*44
$GPGGA,231918.000,,,,,0,00,,,M,,M,,*78
$GPGSV,2,1,05,07,72,194,,08,62,053,,30,55,299,,11,54,155,*7A
$GPGSV,2,2,05,01,29,156,*44
$GPGGA,231919.000,,,,,0,00,,,M,,M,,*79
$GPGSV,2,1,05,07,72,194,,08,62,053,,30,55,299,,11,54,155,*7A
$GPGSV,2,2,05,01,29,156,*44
$GPGGA,231920.000,,,,,0,00,,,M,,M,,*73
$GPGSV,2,1,05,07,72,194,,08,62,053,,30,55,299,,11,54,155,*7A
$GPGSV,2,2,05,01,29,156,*44
$GPGGA,231921.000,,,,,0,00,,,M,,M,,*72
$GPGSV,2,1,05,07,72,194,,08,62,053,,30,55,299,,11,54,155,*7A
$GPGSV,2,2,05,01,29,156,*44
$GPGGA,231922.000,,,,,0,00,,,M,,M,,*71
$GPGSV,2,1,05,07,72,194,,08,62,053,,30,55,299,,11,54,155,*7A
$GPGSV,2,2,05,01,29,156,*44
$GPGGA,231923.000,,,,,0,00,,,M,,M,,*70
$GPGSV,2,1,05,07,72,194,,08,62,053,,30,55,299,,11,54,155,*7A
$GPGSV,2,2,05,01,29,156,*44
$GPGGA,231924.000,,,,,0,00,,,M,,M,,*77
$GPGSV,2,1,05,07,72,194,,08,62,053,,30,55,299,,11,54,155,*7A
$GPGSV,2,2,05,01,29,156,*44
$GPGGA,231925.000,,,,,0,00,,,M,,M,,*76
$GPGSV,2,1,05,07,72,194,,08,62,053,,30,55,299,,11,54,155,*7A
$GPGSV,2,2,05,01,29,156,*44
$GPGGA,231926.000,,,,,0,00,,,M,,M,,*75
$GPGSV,2,1,05,07,72,194,,08,62,053,,30,55,299,,11,54,155,*7A
$GPGSV,2,2,05,01,29,156,*44
$GPGGA,231927.000,,,,,0,00,,,M,,M,,*74
$GPGSV,2,1,05,07,72,194,,08,62,053,,30,55,299,,11,54,155,*7A
$GPGSV,2,2,05,01,29,156,*44
$GPGGA,231928.000,,,,,0,00,,,M,,M,,*7B
$GPGSV,2,1,05,07,72,194,,08,62,053,,30,55,299,,11,54,155,*7A
$GPGSV,2,2,05,01,29,156,*44
$GPGGA,231929.000,,,,,0,00,,,M,,M,,*7A
$GPGSV,2,1,05,07,72,194,,08,62,053,,30,55,299,,11,54,155,*7A
$GPGSV,2,2,05,01,29,156,*44
$GPGGA,231930.000,,,,,0,00,,,M,,M,,*72
$GPGSV,2,1,05,07,72,194,,08,62,053,,30,55,299,,11,54,155,*7A
$GPGSV,2,2,05,01,29,156,*44
$GPGGA,231931.000,,,,,0,00,,,M,,M,,*73
$GPGSV,2,1,05,07,72,194,,08,62,053,,30,55,299,,11,54,155,*7A
$GPGSV,2,2,05,01,29,156,*44
$GPGGA,231932.000,,,,,0,00,,,M,,M,,*70
$GPGSV,2,1,05,07,72,194,,08,62,053,,30,55,299,,11,54,155,*7A
$GPGSV,2,2,05,01,29,156,*44
$GPGGA,231933.000,,,,,0,00,,,M,,M,,*71
$GPGSV,2,1,05,07,72,194,,08,62,053,,30,55,299,,11,54,155,*7A
$GPGSV,2,2,05,01,29,156,*44
$GPGGA,231934.000,,,,,0,00,,,M,,M,,*76
$GPGSV,2,1,05,07,72,194,,08,62,053,,30,55,299,,11,54,155,*7A
$GPGSV,2,2,05,01,29,156,*44
$GPGGA,231935.000,,,,,0,00,,,M,,M,,*77
$GPGSV,2,1,05,07,72,194,,08,62,053,,30,55,299,,11,54,155,*7A
$GPGSV,2,2,05,01,29,156,*44
$GPGGA,231936.000,,,,,0,00,,,M,,M,,*74
$GPGSV,2,1,05,07,72,194,,08,62,053,,30,55,299,,11,54,155,*7A
$GPGSV,2,2,05,01,29,156,*44
$GPGGA,231937.000,,,,,0,00,,,M,,M,,*75
$GPGSV,2,1,05,07,72,194,,08,62,053,,30,55,299,,11,54,155,*7A
$GPGSV,2,2,05,01,29,156,*44
$GPGGA,231938.000,,,,,0,00,,,M,,M,,*7A
$GPGSV,2,1,05,07,72,194,,08,62,053,,30,55,298,,11,54,155,*7B
$GPGSV,2,2,05,01,29,156,*44
$GPGGA,231939.000,,,,,0,00,,,M,,M,,*7B
$GPGSV,2,1,05,07,72,194,,08,62,053,,30,55,298,,11,54,155,*7B
$GPGSV,2,2,05,01,29,156,*44
$GPGGA,231940.000,,,,,0,00,,,M,,M,,*75
$GPGSV,2,1,05,07,72,194,,08,62,053,,30,55,298,,11,54,155,*7B
$GPGSV,2,2,05,01,29,156,*44
$GPGGA,231941.000,,,,,0,00,,,M,,M,,*74
$GPGSV,2,1,05,07,72,194,,08,62,053,,30,55,298,,11,54,155,*7B
$GPGSV,2,2,05,01,29,156,*44
